{
  "MEX": {
    "name": "Estadio Azteca",
    "city": "Mexico City",
    "country": "🇲🇽",
    "lat": 19.3029,
    "lon": -99.1505,
    "tz": "America/Mexico_City"
  },
  "GDL": {
    "name": "Estadio Akron",
    "city": "Guadalajara",
    "country": "🇲🇽",
    "lat": 20.682,
    "lon": -103.4625,
    "tz": "America/Mexico_City"
  },
  "MTY": {
    "name": "Estadio BBVA",
    "city": "Monterrey",
    "country": "🇲🇽",
    "lat": 25.6705,
    "lon": -100.2436,
    "tz": "America/Monterrey"
  },
  "TOR": {
    "name": "BMO Field",
    "city": "Toronto",
    "country": "🇨🇦",
    "lat": 43.6332,
    "lon": -79.4186,
    "tz": "America/Toronto"
  },
  "VAN": {
    "name": "BC Place",
    "city": "Vancouver",
    "country": "🇨🇦",
    "lat": 49.2768,
    "lon": -123.112,
    "tz": "America/Vancouver"
  },
  "NYC": {
    "name": "MetLife Stadium",
    "city": "East Rutherford",
    "country": "🇺🇸",
    "lat": 40.8135,
    "lon": -74.0745,
    "tz": "America/New_York"
  },
  "LAX": {
    "name": "SoFi Stadium",
    "city": "Los Angeles",
    "country": "🇺🇸",
    "lat": 33.9535,
    "lon": -118.3392,
    "tz": "America/Los_Angeles"
  },
  "DAL": {
    "name": "AT&T Stadium",
    "city": "Arlington",
    "country": "🇺🇸",
    "lat": 32.7473,
    "lon": -97.0945,
    "tz": "America/Chicago"
  },
  "SFO": {
    "name": "Levi's Stadium",
    "city": "Santa Clara",
    "country": "🇺🇸",
    "lat": 37.4033,
    "lon": -121.9694,
    "tz": "America/Los_Angeles"
  },
  "MIA": {
    "name": "Hard Rock Stadium",
    "city": "Miami Gardens",
    "country": "🇺🇸",
    "lat": 25.958,
    "lon": -80.2389,
    "tz": "America/New_York"
  },
  "ATL": {
    "name": "Mercedes-Benz Stadium",
    "city": "Atlanta",
    "country": "🇺🇸",
    "lat": 33.7553,
    "lon": -84.4006,
    "tz": "America/New_York"
  },
  "HOU": {
    "name": "NRG Stadium",
    "city": "Houston",
    "country": "🇺🇸",
    "lat": 29.6847,
    "lon": -95.4107,
    "tz": "America/Chicago"
  },
  "PHI": {
    "name": "Lincoln Financial Field",
    "city": "Philadelphia",
    "country": "🇺🇸",
    "lat": 39.9008,
    "lon": -75.1675,
    "tz": "America/New_York"
  },
  "SEA": {
    "name": "Lumen Field",
    "city": "Seattle",
    "country": "🇺🇸",
    "lat": 47.5952,
    "lon": -122.3316,
    "tz": "America/Los_Angeles"
  },
  "BOS": {
    "name": "Gillette Stadium",
    "city": "Foxborough",
    "country": "🇺🇸",
    "lat": 42.0909,
    "lon": -71.2643,
    "tz": "America/New_York"
  },
  "KC": {
    "name": "Arrowhead Stadium",
    "city": "Kansas City",
    "country": "🇺🇸",
    "lat": 39.0489,
    "lon": -94.4839,
    "tz": "America/Chicago"
  }
}